[
  {"route_id": 1, "stop_name": "Central Station (downtown)", "lat": 32.7510, "lng": -97.3260, "sequence": 1},
  {"route_id": 1, "stop_name": "Vickery & University", "lat": 32.7300, "lng": -97.3640, "sequence": 2},
  {"route_id": 1, "stop_name": "Vickery & Hemphill", "lat": 32.7340, "lng": -97.3320, "sequence": 3},
  {"route_id": 2, "stop_name": "Central Station (downtown)", "lat": 32.7510, "lng": -97.3260, "sequence": 1},
  {"route_id": 2, "stop_name": "Camp Bowie & Hulen", "lat": 32.7330, "lng": -97.3990, "sequence": 2},
  {"route_id": 2, "stop_name": "Camp Bowie & Ridglea", "lat": 32.7300, "lng": -97.4280, "sequence": 3},
  {"route_id": 3, "stop_name": "JPS Hospital - Main St", "lat": 32.7300, "lng": -97.3200, "sequence": 1},
  {"route_id": 3, "stop_name": "Rosedale & Hemphill", "lat": 32.7280, "lng": -97.3340, "sequence": 2},
  {"route_id": 3, "stop_name": "Rosedale & Riverside", "lat": 32.7280, "lng": -97.2920, "sequence": 3},
  {"route_id": 4, "stop_name": "Central Station (downtown)", "lat": 32.7510, "lng": -97.3260, "sequence": 1},
  {"route_id": 4, "stop_name": "Hemphill & Berry", "lat": 32.7100, "lng": -97.3340, "sequence": 2},
  {"route_id": 4, "stop_name": "Evans & Berry", "lat": 32.7100, "lng": -97.3120, "sequence": 3},
  {"route_id": 5, "stop_name": "Sycamore School Rd & Crowley Rd", "lat": 32.6420, "lng": -97.3580, "sequence": 1},
  {"route_id": 5, "stop_name": "Sycamore School Rd & Hulen", "lat": 32.6450, "lng": -97.4000, "sequence": 2},
  {"route_id": 5, "stop_name": "Hulen Mall Park & Ride", "lat": 32.6730, "lng": -97.4040, "sequence": 3},
  {"route_id": 6, "stop_name": "West Berry & University", "lat": 32.7100, "lng": -97.3650, "sequence": 1},
  {"route_id": 6, "stop_name": "West Berry & Hulen", "lat": 32.7090, "lng": -97.3990, "sequence": 2},
  {"route_id": 6, "stop_name": "TCU campus area", "lat": 32.7090, "lng": -97.3620, "sequence": 3},
  {"route_id": 7, "stop_name": "Stop Six Transit Hub", "lat": 32.7470, "lng": -97.2670, "sequence": 1},
  {"route_id": 7, "stop_name": "Ramey & Miller", "lat": 32.7460, "lng": -97.2530, "sequence": 2},
  {"route_id": 7, "stop_name": "Central Station (downtown)", "lat": 32.7510, "lng": -97.3260, "sequence": 3},
  {"route_id": 8, "stop_name": "Mansfield Hwy & Berry", "lat": 32.7060, "lng": -97.2820, "sequence": 1},
  {"route_id": 8, "stop_name": "Mansfield Hwy & Loop 820", "lat": 32.6840, "lng": -97.2600, "sequence": 2},
  {"route_id": 8, "stop_name": "Workforce Solutions - Circle Dr", "lat": 32.6900, "lng": -97.2700, "sequence": 3},
  {"route_id": 9, "stop_name": "E Lancaster & Riverside", "lat": 32.7460, "lng": -97.2920, "sequence": 1},
  {"route_id": 9, "stop_name": "E Lancaster & Beach", "lat": 32.7470, "lng": -97.2750, "sequence": 2},
  {"route_id": 9, "stop_name": "Central Station (downtown)", "lat": 32.7510, "lng": -97.3260, "sequence": 3},
  {"route_id": 10, "stop_name": "Las Vegas Trail & I-30", "lat": 32.7400, "lng": -97.4500, "sequence": 1},
  {"route_id": 10, "stop_name": "Ridgmar Mall Park & Ride", "lat": 32.7350, "lng": -97.4470, "sequence": 2},
  {"route_id": 10, "stop_name": "Camp Bowie & Hulen", "lat": 32.7330, "lng": -97.3990, "sequence": 3},
  {"route_id": 11, "stop_name": "McCart & Seminary", "lat": 32.6920, "lng": -97.3680, "sequence": 1},
  {"route_id": 11, "stop_name": "McCart & Berry", "lat": 32.7100, "lng": -97.3680, "sequence": 2},
  {"route_id": 11, "stop_name": "Central Station (downtown)", "lat": 32.7510, "lng": -97.3260, "sequence": 3},
  {"route_id": 12, "stop_name": "Hulen Mall Park & Ride", "lat": 32.6730, "lng": -97.4040, "sequence": 1},
  {"route_id": 12, "stop_name": "Hulen & Bellaire", "lat": 32.7050, "lng": -97.4000, "sequence": 2},
  {"route_id": 12, "stop_name": "Hulen & I-30", "lat": 32.7390, "lng": -97.4040, "sequence": 3},
  {"route_id": 13, "stop_name": "Sycamore & E Lancaster", "lat": 32.7440, "lng": -97.2640, "sequence": 1},
  {"route_id": 13, "stop_name": "Sycamore & Rosedale", "lat": 32.7280, "lng": -97.2640, "sequence": 2},
  {"route_id": 13, "stop_name": "Stop Six Transit Hub", "lat": 32.7470, "lng": -97.2670, "sequence": 3},
  {"route_id": 14, "stop_name": "Alliance Town Center Park & Ride", "lat": 32.9180, "lng": -97.2900, "sequence": 1},
  {"route_id": 14, "stop_name": "Mercantile Park", "lat": 32.8500, "lng": -97.3450, "sequence": 2},
  {"route_id": 14, "stop_name": "Central Station (downtown)", "lat": 32.7510, "lng": -97.3260, "sequence": 3}
]
